<?xml version="1.0" encoding="utf-8"?>
<kml xmlns="http://earth.google.com/kml/2.2">
  <Document>
    <name>COUNTY_NAMES</name>
    <description>GA/SC Counties</description>
    <Style id="style1">
      <IconStyle>
        <Icon>
          <href>
          http://maps.google.com/mapfiles/kml/shapes/shaded_dot.png</href>
        </Icon>
      </IconStyle>
    </Style>
    <Placemark>
      <name>COUNTY_ABBEVILLE</name>
      <description>Abbeville Co Fire Primary Air-to-Ground
      Zone: A20
      Ch #: 003
      ABEVL COFD
      
Abbeville City Fire Secondary Air-to-Ground
      Zone: A20
      Ch #: 004
      ABEVL CTYFD
      
Abbeville Co Backup Air-to-Ground
      Favorite Zone/Ch: B01/011
      Zone: B20
      Ch #: 002
      SC AIR-1</description>
      <styleUrl>#style1</styleUrl>
      <Point>
        <coordinates>
        -82.4587508436349,34.2225614722135,0</coordinates>
      </Point>
    </Placemark>
    <Placemark>
      <name>COUNTY_AIKEN</name>
      <description>Aiken Co EMS Dispatch (initial contact)
      Favorite Zone/Ch: B01/014
      Zone: B20
      Ch #: 006
      AIKN EMS-1

Aiken Co Mutual Aid Patch to Dispatch
      Favorite Zone/Ch: B01/015
      Zone: B20
      Ch #: 007
      AIKN PATCH

Aiken Co Fire Tower "A" - Aiken - Primary Air-to-Ground
      Favorite Zone/Ch: A01/006
      Zone: A20
      Ch #: 005
      AIKN FIRE-A

Aiken Co Fire Tower "B" - Foxtown - Primary Air-to-Ground
      Favorite Zone/Ch: A01/007
      Zone: A20
      Ch #: 006
      AIKN FIRE-B

Aiken Co Fire Tower "C" - Kitchings Mill - Primary Air-to-Ground
      Favorite Zone/Ch: A01/008
      Zone: A20
      Ch #: 007
      AIKN FIRE-C

Aiken Co Fire Tower "D" - Beech Island - Primary Air-to-Ground
      Favorite Zone/Ch: A01/009
      Zone: A20
      Ch #: 008
      AIKN FIRE-D

Aiken Co Fire Tower "E" - Graniteville - Primary Air-to-Ground
      Favorite Zone/Ch: A01/010
      Zone: A20
      Ch #: 009
      AIKN FIRE-E

Aiken Co Fire Tower "F" - New Ellenton - Primary Air-to-Ground
      Favorite Zone/Ch: A01/011
      Zone: A20
      Ch #: 010
      AIKN FIRE-F

Aiken Co Fire Tower "G" - Kirkland Hill - Primary Air-to-Ground
      Favorite Zone/Ch: A01/012
      Zone: A20
      Ch #: 011
      AIKN FIRE-G</description>
      <styleUrl>#style1</styleUrl>
      <Point>
        <coordinates>
        -81.6350257483449,33.5451227581112,0</coordinates>
      </Point>
    </Placemark>
    <Placemark>
      <name>COUNTY_ALLENDALE</name>
      <description>Allendale Co Primary Air-to-Ground
      Zone: A20
      Ch #: 012
      ALNDL EMS
      
Allendale Co Secondary Air-to-Ground
      Zone: A20
      Ch #: 013
      ALNDL FIRE</description>
      <styleUrl>#style1</styleUrl>
      <styleUrl>#style1</styleUrl>
      <Point>
        <coordinates>
        -81.35828336726659,32.9881511727775,0</coordinates>
      </Point>
    </Placemark>
    <Placemark>
      <name>COUNTY_ANDERSON</name>
      <description>Anderson Co Primary Air-to-Ground 
      Favorite Zone/Ch: B01/011
      Zone: B20
      Ch #: 002
      SC AIR-1

Anderson Co Fire VHF Primary Air-to-Ground
      Zone: A20
      Ch #: 014
      AND FD-1

Anderson Co FD-2 VHF Secondary Air-to-Ground
      Zone: A20
      Ch #: 015
      AND FD-2
      
Anderson Co FD-3 VHF Secondary Air-to-Ground
      Zone: A20
      Ch #: 016
      AND FD-3

Anderson Co EMS VHF Secondary Air-to-Ground
      Zone: A20
      Ch #: 017
      AND EMS-1

Belton FD VHF Primary Air-to-Ground
      Zone: A20
      Ch #: 018
      AND BELTN

Honea Path FD VHF Primary Air-to-Ground
      Zone: A20
      Ch #: 019
      AND HONEA

Williamston FD VHF Primary Air-to-Ground
      Zone: A20
      Ch #: 020
      AND WILSTN</description>
      <styleUrl>#style1</styleUrl>
      <Point>
        <coordinates>
        -82.6378644868321,34.519077689073,0</coordinates>
      </Point>
    </Placemark>
    <Placemark>
      <name>COUNTY_APPLING</name>
      <description></description>
      <styleUrl>#style1</styleUrl>
      <Point>
        <coordinates>
        -82.28898705067481,31.7492863868136,0</coordinates>
      </Point>
    </Placemark>
    <Placemark>
      <name>COUNTY_ATKINSON</name>
      <description></description>
      <styleUrl>#style1</styleUrl>
      <Point>
        <coordinates>
        -82.8799970709764,31.2971142740282,0</coordinates>
      </Point>
    </Placemark>
    <Placemark>
      <name>COUNTY_BACON</name>
      <description></description>
      <styleUrl>#style1</styleUrl>
      <Point>
        <coordinates>
        -82.45268877779419,31.5536807281134,0</coordinates>
      </Point>
    </Placemark>
    <Placemark>
      <name>COUNTY_BAKER</name>
      <description></description>
      <styleUrl>#style1</styleUrl>
      <Point>
        <coordinates>
        -84.4446734263777,31.3261901567704,0</coordinates>
      </Point>
    </Placemark>
    <Placemark>
      <name>COUNTY_BALDWIN</name>
      <description></description>
      <styleUrl>#style1</styleUrl>
      <Point>
        <coordinates>
        -83.24984214364569,33.0689572120826,0</coordinates>
      </Point>
    </Placemark>
    <Placemark>
      <name>COUNTY_BAMBERG</name>
      <description>Bamberg Co Fire Primary Air-to-Ground
      Zone: A20
      Ch #: 021
      BAMBRG FIRE

Bamberg Co EMS Patient Update and Primary Air-to-Ground
      Zone: A20
      Ch #: 022
      BAMBRG EMS</description>
      <styleUrl>#style1</styleUrl>
      <Point>
        <coordinates>
        -81.05422220506379,33.2147794214878,0</coordinates>
      </Point>
    </Placemark>
    <Placemark>
      <name>COUNTY_BANKS</name>
      <description></description>
      <styleUrl>#style1</styleUrl>
      <Point>
        <coordinates>
        -83.497375735224,34.3541405203473,0</coordinates>
      </Point>
    </Placemark>
    <Placemark>
      <name>COUNTY_BARNWELL</name>
      <description>Barnwell Co Primary Air-to-Ground
      Favorite Zone/Ch: A01/013
      Zone: A20
      Ch #: 023
      BARNWL FD-1

Barnwell Co Secondary Air-to-Ground
      Zone: A20
      Ch #: 024
      BARNWL FD-2
      
Barnwell Co EMS uses SC AIR-1 as Primary for Patient Info
      Favorite Zone/Ch: B01/011
      Zone: B20
      Ch #: 002
      SC AIR-1</description>
      <styleUrl>#style1</styleUrl>
      <Point>
        <coordinates>
        -81.4350879876252,33.2660933767821,0</coordinates>
      </Point>
    </Placemark>
    <Placemark>
      <name>COUNTY_BARROW</name>
      <description></description>
      <styleUrl>#style1</styleUrl>
      <Point>
        <coordinates>
        -83.7127666210629,33.9932025042111,0</coordinates>
      </Point>
    </Placemark>
    <Placemark>
      <name>COUNTY_BARTOW</name>
      <description></description>
      <styleUrl>#style1</styleUrl>
      <Point>
        <coordinates>
        -84.8405029960752,34.2378615344038,0</coordinates>
      </Point>
    </Placemark>
    <Placemark>
      <name>COUNTY_BEAUFORT</name>
      <description>Beaufort Co Primary Air-to-Ground
      Favorite Zone/Ch: B01/012
      Zone: B20
      Ch #: 004
      SC AIR-3</description>
      <styleUrl>#style1</styleUrl>
      <Point>
        <coordinates>
        -80.7210376242831,32.382435691515,0</coordinates>
      </Point>
    </Placemark>
    <Placemark>
      <name>COUNTY_BEN_HILL</name>
      <description></description>
      <styleUrl>#style1</styleUrl>
      <Point>
        <coordinates>
        -83.22046297595379,31.7597879587362,0</coordinates>
      </Point>
    </Placemark>
    <Placemark>
      <name>COUNTY_BERKELEY</name>
      <description></description>
      <styleUrl>#style1</styleUrl>
      <Point>
        <coordinates>
        -79.95105997081259,33.197765572449,0</coordinates>
      </Point>
    </Placemark>
    <Placemark>
      <name>COUNTY_BERRIEN</name>
      <description></description>
      <styleUrl>#style1</styleUrl>
      <Point>
        <coordinates>
        -83.22962608335069,31.2760662652918,0</coordinates>
      </Point>
    </Placemark>
    <Placemark>
      <name>COUNTY_BIBB</name>
      <description></description>
      <styleUrl>#style1</styleUrl>
      <Point>
        <coordinates>
        -83.6977619353956,32.8065914671651,0</coordinates>
      </Point>
    </Placemark>
    <Placemark>
      <name>COUNTY_BLECKLEY</name>
      <description></description>
      <styleUrl>#style1</styleUrl>
      <Point>
        <coordinates>
        -83.32784282588131,32.43444744884,0</coordinates>
      </Point>
    </Placemark>
    <Placemark>
      <name>COUNTY_BRANTLEY</name>
      <description></description>
      <styleUrl>#style1</styleUrl>
      <Point>
        <coordinates>
        -81.98189843639631,31.1968820029891,0</coordinates>
      </Point>
    </Placemark>
    <Placemark>
      <name>COUNTY_BROOKS</name>
      <description></description>
      <styleUrl>#style1</styleUrl>
      <Point>
        <coordinates>
        -83.5805044528998,30.8422058902499,0</coordinates>
      </Point>
    </Placemark>
    <Placemark>
      <name>COUNTY_BRYAN</name>
      <description></description>
      <styleUrl>#style1</styleUrl>
      <Point>
        <coordinates>
        -81.4424752134294,32.013230354383,0</coordinates>
      </Point>
    </Placemark>
    <Placemark>
      <name>COUNTY_BULLOCH</name>
      <description></description>
      <styleUrl>#style1</styleUrl>
      <Point>
        <coordinates>
        -81.74318481430829,32.3968199843131,0</coordinates>
      </Point>
    </Placemark>
    <Placemark>
      <name>COUNTY_BURKE</name>
      <description>Burke Co Primary Air-to-Ground
      Favorite Zone/Ch: A01/001
      Zone: A10
      Ch #: 001
      GA/SC HEAR</description>
      <styleUrl>#style1</styleUrl>
      <Point>
        <coordinates>
        -82.00078466495199,33.0611594972897,0</coordinates>
      </Point>
    </Placemark>
    <Placemark>
      <name>COUNTY_BUTTS</name>
      <description></description>
      <styleUrl>#style1</styleUrl>
      <Point>
        <coordinates>
        -83.9571734767495,33.2878567363146,0</coordinates>
      </Point>
    </Placemark>
    <Placemark>
      <name>COUNTY_CALHOUN_GA</name>
      <description></description>
      <styleUrl>#style1</styleUrl>
      <Point>
        <coordinates>
        -84.62451168595869,31.5292032782942,0</coordinates>
      </Point>
    </Placemark>
    <Placemark>
      <name>COUNTY_CALHOUN_SC</name>
      <description>Calhoun Co EMS Primary Air-to-Ground
      Zone: A20
      Ch #: 025
      CALHON EMS

Calhoun Co Secondary Air-to-Ground
      Favorite Zone/Ch: B01/012
      Zone: B20
      Ch #: 004
      SC AIR-3</description>
      <styleUrl>#style1</styleUrl>
      <Point>
        <coordinates>
        -80.7799988482884,33.6747071531468,0</coordinates>
      </Point>
    </Placemark>
    <Placemark>
      <name>COUNTY_CAMDEN</name>
      <description></description>
      <styleUrl>#style1</styleUrl>
      <Point>
        <coordinates>
        -81.6363916707592,30.9224948917496,0</coordinates>
      </Point>
    </Placemark>
    <Placemark>
      <name>COUNTY_CANDLER</name>
      <description></description>
      <styleUrl>#style1</styleUrl>
      <Point>
        <coordinates>
        -82.0736761042234,32.4034487353251,0</coordinates>
      </Point>
    </Placemark>
    <Placemark>
      <name>COUNTY_CARROLL</name>
      <description></description>
      <styleUrl>#style1</styleUrl>
      <Point>
        <coordinates>
        -85.07974651386949,33.5828225109172,0</coordinates>
      </Point>
    </Placemark>
    <Placemark>
      <name>COUNTY_CATOOSA</name>
      <description></description>
      <styleUrl>#style1</styleUrl>
      <Point>
        <coordinates>
        -85.1382513559907,34.9036644344662,0</coordinates>
      </Point>
    </Placemark>
    <Placemark>
      <name>COUNTY_CHARLESTON</name>
      <description>Charleston Co Primary Air-to-Ground
      Favorite Zone/Ch: B01/012
      Zone: B20
      Ch #: 004
      SC AIR-3

Charleston ER-1 Linked to Charleston VA
      Zone: B20
      Ch #: 010
      CEMS ER1

Charleston ER-2 MCI Incident-Makeshift Hospital
      Zone: B20
      Ch #: 011
      CEMS ER2

Charleston ER-3 MCI Incident-Makeshift Hospital
      Zone: B20
      Ch #: 012
      CEMS ER3</description>
      <styleUrl>#style1</styleUrl>
      <Point>
        <coordinates>
        -79.9397294835338,32.838476117789,0</coordinates>
      </Point>
    </Placemark>
    <Placemark>
      <name>COUNTY_CHARLTON</name>
      <description></description>
      <styleUrl>#style1</styleUrl>
      <Point>
        <coordinates>
        -82.13769428647061,30.781728373733,0</coordinates>
      </Point>
    </Placemark>
    <Placemark>
      <name>COUNTY_CHATHAM</name>
      <description></description>
      <styleUrl>#style1</styleUrl>
      <Point>
        <coordinates>
        -81.0924283602272,31.9740283040243,0</coordinates>
      </Point>
    </Placemark>
    <Placemark>
      <name>COUNTY_CHATTAHOOCHEE</name>
      <description></description>
      <styleUrl>#style1</styleUrl>
      <Point>
        <coordinates>
        -84.7870535721064,32.3469776268094,0</coordinates>
      </Point>
    </Placemark>
    <Placemark>
      <name>COUNTY_CHATTOOGA</name>
      <description></description>
      <styleUrl>#style1</styleUrl>
      <Point>
        <coordinates>
        -85.3452971458794,34.4750264365498,0</coordinates>
      </Point>
    </Placemark>
    <Placemark>
      <name>COUNTY_CHEROKEE_GA</name>
      <description></description>
      <styleUrl>#style1</styleUrl>
      <Point>
        <coordinates>
        -84.47620417527691,34.2439398411833,0</coordinates>
      </Point>
    </Placemark>
    <Placemark>
      <name>COUNTY_CHEROKEE_SC</name>
      <description></description>
      <styleUrl>#style1</styleUrl>
      <Point>
        <coordinates>
        -81.62038704469541,35.0482780335768,0</coordinates>
      </Point>
    </Placemark>
    <Placemark>
      <name>COUNTY_CHESTER</name>
      <description></description>
      <styleUrl>#style1</styleUrl>
      <Point>
        <coordinates>
        -81.1594879777151,34.6920761791287,0</coordinates>
      </Point>
    </Placemark>
    <Placemark>
      <name>COUNTY_CHESTERFIELD</name>
      <description></description>
      <styleUrl>#style1</styleUrl>
      <Point>
        <coordinates>
        -80.1587232307453,34.6395724573593,0</coordinates>
      </Point>
    </Placemark>
    <Placemark>
      <name>COUNTY_CLARENDON</name>
      <description></description>
      <styleUrl>#style1</styleUrl>
      <Point>
        <coordinates>
        -80.2164106388348,33.6657201404319,0</coordinates>
      </Point>
    </Placemark>
    <Placemark>
      <name>COUNTY_CLARKE</name>
      <description></description>
      <styleUrl>#style1</styleUrl>
      <Point>
        <coordinates>
        -83.36733580927729,33.9511750372381,0</coordinates>
      </Point>
    </Placemark>
    <Placemark>
      <name>COUNTY_CLAY</name>
      <description></description>
      <styleUrl>#style1</styleUrl>
      <Point>
        <coordinates>
        -84.9801069428662,31.6262815444495,0</coordinates>
      </Point>
    </Placemark>
    <Placemark>
      <name>COUNTY_CLAYTON</name>
      <description></description>
      <styleUrl>#style1</styleUrl>
      <Point>
        <coordinates>
        -84.3576903138018,33.5418912829648,0</coordinates>
      </Point>
    </Placemark>
    <Placemark>
      <name>COUNTY_CLINCH</name>
      <description></description>
      <styleUrl>#style1</styleUrl>
      <Point>
        <coordinates>
        -82.7062408800759,30.9149526435706,0</coordinates>
      </Point>
    </Placemark>
    <Placemark>
      <name>COUNTY_COBB</name>
      <description></description>
      <styleUrl>#style1</styleUrl>
      <Point>
        <coordinates>
        -84.57667590582361,33.9414765402396,0</coordinates>
      </Point>
    </Placemark>
    <Placemark>
      <name>COUNTY_COFFEE</name>
      <description></description>
      <styleUrl>#style1</styleUrl>
      <Point>
        <coordinates>
        -82.8492049178805,31.5492776918456,0</coordinates>
      </Point>
    </Placemark>
    <Placemark>
      <name>COUNTY_COLLETON</name>
      <description>Colleton Co Primary Air-to-Ground
      Favorite Zone/Ch: B01/012
      Zone: B20
      Ch #: 004
      SC AIR-3</description>
      <styleUrl>#style1</styleUrl>
      <Point>
        <coordinates>
        -80.6636047540233,32.8590877188107,0</coordinates>
      </Point>
    </Placemark>
    <Placemark>
      <name>COUNTY_COLQUITT</name>
      <description></description>
      <styleUrl>#style1</styleUrl>
      <Point>
        <coordinates>
        -83.7688524413167,31.18839745016,0</coordinates>
      </Point>
    </Placemark>
    <Placemark>
      <name>COUNTY_COLUMBIA</name>
      <description>Columbia Co Primary Air-to-Ground
      Favorite Zone/Ch: B01/003
      Zone: B10
      Ch #: 002
      AUMC
      
Columbia Co EMS-2 (Gold Cross EMS)
      Favorite Zone/Ch: B01/005
      Zone: B10
      Ch #: 004
      COL EMS-2</description>
      <styleUrl>#style1</styleUrl>
      <Point>
        <coordinates>
        -82.2640659376865,33.5441296602959,0</coordinates>
      </Point>
    </Placemark>
    <Placemark>
      <name>COUNTY_COOK</name>
      <description></description>
      <styleUrl>#style1</styleUrl>
      <Point>
        <coordinates>
        -83.43046938602831,31.1539980529701,0</coordinates>
      </Point>
    </Placemark>
    <Placemark>
      <name>COUNTY_COWETA</name>
      <description></description>
      <styleUrl>#style1</styleUrl>
      <Point>
        <coordinates>
        -84.76336994256771,33.3534623890211,0</coordinates>
      </Point>
    </Placemark>
    <Placemark>
      <name>COUNTY_CRAWFORD</name>
      <description></description>
      <styleUrl>#style1</styleUrl>
      <Point>
        <coordinates>
        -83.98634635212269,32.7145076645817,0</coordinates>
      </Point>
    </Placemark>
    <Placemark>
      <name>COUNTY_CRISP</name>
      <description></description>
      <styleUrl>#style1</styleUrl>
      <Point>
        <coordinates>
        -83.7681079846878,31.9229380257386,0</coordinates>
      </Point>
    </Placemark>
    <Placemark>
      <name>COUNTY_DADE</name>
      <description></description>
      <styleUrl>#style1</styleUrl>
      <Point>
        <coordinates>
        -85.5045322530994,34.8545276917552,0</coordinates>
      </Point>
    </Placemark>
    <Placemark>
      <name>COUNTY_DARLINGTON</name>
      <description></description>
      <styleUrl>#style1</styleUrl>
      <Point>
        <coordinates>
        -79.9573856003466,34.3322559549683,0</coordinates>
      </Point>
    </Placemark>
    <Placemark>
      <name>COUNTY_DAWSON</name>
      <description></description>
      <styleUrl>#style1</styleUrl>
      <Point>
        <coordinates>
        -84.1706398012966,34.4443051058739,0</coordinates>
      </Point>
    </Placemark>
    <Placemark>
      <name>COUNTY_DECATUR</name>
      <description></description>
      <styleUrl>#style1</styleUrl>
      <Point>
        <coordinates>
        -84.57907464580011,30.8783510431155,0</coordinates>
      </Point>
    </Placemark>
    <Placemark>
      <name>COUNTY_DEKALB</name>
      <description></description>
      <styleUrl>#style1</styleUrl>
      <Point>
        <coordinates>
        -84.2264118043405,33.7715345513429,0</coordinates>
      </Point>
    </Placemark>
    <Placemark>
      <name>COUNTY_DILLON</name>
      <description></description>
      <styleUrl>#style1</styleUrl>
      <Point>
        <coordinates>
        -79.3789052790785,34.391556940835,0</coordinates>
      </Point>
    </Placemark>
    <Placemark>
      <name>COUNTY_DODGE</name>
      <description></description>
      <styleUrl>#style1</styleUrl>
      <Point>
        <coordinates>
        -83.16840293697339,32.1721889665149,0</coordinates>
      </Point>
    </Placemark>
    <Placemark>
      <name>COUNTY_DOOLY</name>
      <description></description>
      <styleUrl>#style1</styleUrl>
      <Point>
        <coordinates>
        -83.798755394512,32.1571846162829,0</coordinates>
      </Point>
    </Placemark>
    <Placemark>
      <name>COUNTY_DORCHESTER</name>
      <description>Dorchester Co Primary Air-to-Ground
      Favorite Zone/Ch: B01/012
      Zone: B20
      Ch #: 004
      SC AIR-3</description>
      <styleUrl>#style1</styleUrl>
      <Point>
        <coordinates>
        -80.4066440608422,33.0804160314398,0</coordinates>
      </Point>
    </Placemark>
    <Placemark>
      <name>COUNTY_DOUGHERTY</name>
      <description></description>
      <styleUrl>#style1</styleUrl>
      <Point>
        <coordinates>
        -84.2162601728137,31.5333963755163,0</coordinates>
      </Point>
    </Placemark>
    <Placemark>
      <name>COUNTY_DOUGLAS</name>
      <description></description>
      <styleUrl>#style1</styleUrl>
      <Point>
        <coordinates>
        -84.7679305062003,33.7018274995326,0</coordinates>
      </Point>
    </Placemark>
    <Placemark>
      <name>COUNTY_EARLY</name>
      <description></description>
      <styleUrl>#style1</styleUrl>
      <Point>
        <coordinates>
        -84.90364743925861,31.3228387417844,0</coordinates>
      </Point>
    </Placemark>
    <Placemark>
      <name>COUNTY_ECHOLS</name>
      <description></description>
      <styleUrl>#style1</styleUrl>
      <Point>
        <coordinates>
        -82.8939387571878,30.7100946033162,0</coordinates>
      </Point>
    </Placemark>
    <Placemark>
      <name>COUNTY_EDGEFIELD</name>
      <description>Edgefield Co Fire North Primary Air-to-Ground
      Favorite Zone/Ch: A01/014
      Zone: A20
      Ch #: 026
      EDGF FD-N
	      
Edgefield Co Fire South Primary Air-to-Ground
      Favorite Zone/Ch: A01/015
      Zone: A20
      Ch #: 027
      EDGF FD-S
      
Edgefield Co EMS North Secondary Air-to-Ground
      Zone: A20
      Ch #: 028
      EDGF EMS-N

Edgefield Co EMS South Secondary Air-to-Ground
      Zone: A20
      Ch #: 029
      EDGF EMS-S</description>
      <styleUrl>#style1</styleUrl>
      <Point>
        <coordinates>
        -81.9675161243885,33.7726737232413,0</coordinates>
      </Point>
    </Placemark>
    <Placemark>
      <name>COUNTY_EFFINGHAM</name>
      <description></description>
      <styleUrl>#style1</styleUrl>
      <Point>
        <coordinates>
        -81.34134276725381,32.3673159759284,0</coordinates>
      </Point>
    </Placemark>
    <Placemark>
      <name>COUNTY_ELBERT</name>
      <description>Elbert Co Primary Air-to-Ground
      Favorite Zone/Ch: A01/001
      Zone: A10
      Ch #: 001
      GA/SC HEAR

Elbert Co EMS TAC Secondary Air-to-Ground 
      Zone: A10
      Ch #: 004
      ELBERT EMS
      
Elbert Co Fire
      Zone: A10
      Ch #: 005
      ELBERT FIRE</description>
      <styleUrl>#style1</styleUrl>
      <Point>
        <coordinates>
        -82.840099494829,34.1168002897544,0</coordinates>
      </Point>
    </Placemark>
    <Placemark>
      <name>COUNTY_EMANUEL</name>
      <description>Emanuel Co EMS Primary Air-to-Ground
      Favorite Zone/Ch: A01/002
      Zone: A10
      Ch #: 006
      EMANUEL EMS

Emanuel Co Secondary Air-to-Ground 
      Favorite Zone/Ch: A01/001
      Zone: A10
      Ch #: 001
      GA/SC HEAR</description>
      <styleUrl>#style1</styleUrl>
      <Point>
        <coordinates>
        -82.30171163878541,32.5897685729126,0</coordinates>
      </Point>
    </Placemark>
    <Placemark>
      <name>COUNTY_EVANS</name>
      <description>Evans Co Primary Air-to-Ground
      Favorite Zone/Ch: A01/001
      Zone: A10
      Ch #: 001
      GA/SC HEAR</description>
      <styleUrl>#style1</styleUrl>
      <Point>
        <coordinates>
        -81.8868876309725,32.1567689610497,0</coordinates>
      </Point>
    </Placemark>
    <Placemark>
      <name>COUNTY_FAIRFIELD</name>
      <description></description>
      <styleUrl>#style1</styleUrl>
      <Point>
        <coordinates>
        -81.12118978893891,34.3952000952176,0</coordinates>
      </Point>
    </Placemark>
    <Placemark>
      <name>COUNTY_FANNIN</name>
      <description></description>
      <styleUrl>#style1</styleUrl>
      <Point>
        <coordinates>
        -84.3198293344641,34.8641314000289,0</coordinates>
      </Point>
    </Placemark>
    <Placemark>
      <name>COUNTY_FAYETTE</name>
      <description></description>
      <styleUrl>#style1</styleUrl>
      <Point>
        <coordinates>
        -84.49419590964099,33.4139487929505,0</coordinates>
      </Point>
    </Placemark>
    <Placemark>
      <name>COUNTY_FLORENCE</name>
      <description></description>
      <styleUrl>#style1</styleUrl>
      <Point>
        <coordinates>
        -79.70265287213989,34.024211543417,0</coordinates>
      </Point>
    </Placemark>
    <Placemark>
      <name>COUNTY_FLOYD</name>
      <description></description>
      <styleUrl>#style1</styleUrl>
      <Point>
        <coordinates>
        -85.2142832388281,34.2631691084943,0</coordinates>
      </Point>
    </Placemark>
    <Placemark>
      <name>COUNTY_FORSYTH</name>
      <description></description>
      <styleUrl>#style1</styleUrl>
      <Point>
        <coordinates>
        -84.12502409960879,34.2255223165973,0</coordinates>
      </Point>
    </Placemark>
    <Placemark>
      <name>COUNTY_FRANKLIN</name>
      <description>Franklin Co EMS Primary Air-to-Ground
      Zone: A10
      Ch #: 007
      FRNKLN EMS

Franklin Co Fire Gerrard Rd Tower Secondary Air-to-Ground
      Zone: A10
      Ch #: 008
      FRNKLN GERD</description>
      <styleUrl>#style1</styleUrl>
      <Point>
        <coordinates>
        -83.2291793489476,34.3754428912448,0</coordinates>
      </Point>
    </Placemark>
    <Placemark>
      <name>COUNTY_FULTON</name>
      <description></description>
      <styleUrl>#style1</styleUrl>
      <Point>
        <coordinates>
        -84.46702206560499,33.7902589000901,0</coordinates>
      </Point>
    </Placemark>
    <Placemark>
      <name>COUNTY_GEORGETOWN</name>
      <description></description>
      <styleUrl>#style1</styleUrl>
      <Point>
        <coordinates>
        -79.3322282678316,33.4337359372983,0</coordinates>
      </Point>
    </Placemark>
    <Placemark>
      <name>COUNTY_GILMER</name>
      <description></description>
      <styleUrl>#style1</styleUrl>
      <Point>
        <coordinates>
        -84.4555678355903,34.6912774949729,0</coordinates>
      </Point>
    </Placemark>
    <Placemark>
      <name>COUNTY_GLASCOCK</name>
      <description>Glascock Co Primary Air-to-Ground
      Favorite Zone/Ch: A01/001
      Zone: A10
      Ch #: 001
      GA/SC HEAR</description>
      <styleUrl>#style1</styleUrl>
      <Point>
        <coordinates>
        -82.61070632311591,33.2292859422995,0</coordinates>
      </Point>
    </Placemark>
    <Placemark>
      <name>COUNTY_GLYNN</name>
      <description></description>
      <styleUrl>#style1</styleUrl>
      <Point>
        <coordinates>
        -81.49370059659771,31.2132478074777,0</coordinates>
      </Point>
    </Placemark>
    <Placemark>
      <name>COUNTY_GORDON</name>
      <description></description>
      <styleUrl>#style1</styleUrl>
      <Point>
        <coordinates>
        -84.8757568975993,34.5033660292817,0</coordinates>
      </Point>
    </Placemark>
    <Placemark>
      <name>COUNTY_GRADY</name>
      <description></description>
      <styleUrl>#style1</styleUrl>
      <Point>
        <coordinates>
        -84.2344308970268,30.8746794388285,0</coordinates>
      </Point>
    </Placemark>
    <Placemark>
      <name>COUNTY_GREENE</name>
      <description>Greene Co 800MHz Primary Air-to-Ground
      Favorite Zone/Ch: B01/005
      Zone: B90
      Ch #: 002
      8CALL-90D
      
Greene Co VHF EMS HEAR
      Zone: A10
      Ch #: 009
      GREEN HEAR</description>
      <styleUrl>#style1</styleUrl>
      <Point>
        <coordinates>
        -83.1666592383132,33.5787901681722,0</coordinates>
      </Point>
    </Placemark>
    <Placemark>
      <name>COUNTY_GREENVILLE</name>
      <description>Greenville Co Primary Air-to-Ground
      Favorite Zone/Ch: B01/011
      Zone: B20
      Ch #: 002
      SC AIR-1</description>
      <styleUrl>#style1</styleUrl>
      <Point>
        <coordinates>
        -82.370810104455,34.8943499058698,0</coordinates>
      </Point>
    </Placemark>
    <Placemark>
      <name>COUNTY_GREENWOOD</name>
      <description>Greenwood Co Primary Air-to-Ground
      Favorite Zone/Ch: B01/011
      Zone: B20
      Ch #: 002
      SC AIR-1

Greenwood Co Secondary Air-to-Ground
      Favorite Zone/Ch: B01/013
      Zone: B20
      Ch #: 005
      SC AIR2GND</description>
      <styleUrl>#style1</styleUrl>
      <Point>
        <coordinates>
        -82.12591105263169,34.1538263008216,0</coordinates>
      </Point>
    </Placemark>
    <Placemark>
      <name>COUNTY_GWINNETT</name>
      <description></description>
      <styleUrl>#style1</styleUrl>
      <Point>
        <coordinates>
        -84.023631856278,33.9617349750175,0</coordinates>
      </Point>
    </Placemark>
    <Placemark>
      <name>COUNTY_HABERSHAM</name>
      <description></description>
      <styleUrl>#style1</styleUrl>
      <Point>
        <coordinates>
        -83.5311198881509,34.6310282255831,0</coordinates>
      </Point>
    </Placemark>
    <Placemark>
      <name>COUNTY_HALL</name>
      <description></description>
      <styleUrl>#style1</styleUrl>
      <Point>
        <coordinates>
        -83.81968507975991,34.3168960166057,0</coordinates>
      </Point>
    </Placemark>
    <Placemark>
      <name>COUNTY_HAMPTON</name>
      <description>Hampton Co Primary Air-to-Ground
      Favorite Zone/Ch: B01/012
      Zone: B20
      Ch #: 004
      SC AIR-3

Hampton Co Secondary Air-to-Ground
      Favorite Zone/Ch: B01/013
      Zone: B20
      Ch #: 005
      SC AIR2GND</description>
      <styleUrl>#style1</styleUrl>
      <Point>
        <coordinates>
        -81.1407005172403,32.7763918188722,0</coordinates>
      </Point>
    </Placemark>
    <Placemark>
      <name>COUNTY_HANCOCK</name>
      <description></description>
      <styleUrl>#style1</styleUrl>
      <Point>
        <coordinates>
        -83.0010020329221,33.2702499101641,0</coordinates>
      </Point>
    </Placemark>
    <Placemark>
      <name>COUNTY_HARALSON</name>
      <description></description>
      <styleUrl>#style1</styleUrl>
      <Point>
        <coordinates>
        -85.21103025337931,33.7942393458191,0</coordinates>
      </Point>
    </Placemark>
    <Placemark>
      <name>COUNTY_HARRIS</name>
      <description></description>
      <styleUrl>#style1</styleUrl>
      <Point>
        <coordinates>
        -84.9089920809173,32.7360101839317,0</coordinates>
      </Point>
    </Placemark>
    <Placemark>
      <name>COUNTY_HART</name>
      <description>Hart Co Primary Air-to-Ground
      Zone: A10
      Ch #: 010
      HART HEAR
      
Hart Co Fire Dispatch
      Zone: A10
      Ch #: 009
      GREEN HEAR</description>
      <styleUrl>#style1</styleUrl>
      <Point>
        <coordinates>
        -82.96425159955309,34.3509053382584,0</coordinates>
      </Point>
    </Placemark>
    <Placemark>
      <name>COUNTY_HEARD</name>
      <description></description>
      <styleUrl>#style1</styleUrl>
      <Point>
        <coordinates>
        -85.1282743719497,33.2970343835714,0</coordinates>
      </Point>
    </Placemark>
    <Placemark>
      <name>COUNTY_HENRY</name>
      <description></description>
      <styleUrl>#style1</styleUrl>
      <Point>
        <coordinates>
        -84.1542000928622,33.4530091620763,0</coordinates>
      </Point>
    </Placemark>
    <Placemark>
      <name>COUNTY_HORRY</name>
      <description></description>
      <styleUrl>#style1</styleUrl>
      <Point>
        <coordinates>
        -78.99652869936131,33.9214650135207,0</coordinates>
      </Point>
    </Placemark>
    <Placemark>
      <name>COUNTY_HOUSTON</name>
      <description></description>
      <styleUrl>#style1</styleUrl>
      <Point>
        <coordinates>
        -83.66624655662901,32.4590131207285,0</coordinates>
      </Point>
    </Placemark>
    <Placemark>
      <name>COUNTY_IRWIN</name>
      <description></description>
      <styleUrl>#style1</styleUrl>
      <Point>
        <coordinates>
        -83.27637901792551,31.6022889602299,0</coordinates>
      </Point>
    </Placemark>
    <Placemark>
      <name>COUNTY_JACKSON</name>
      <description></description>
      <styleUrl>#style1</styleUrl>
      <Point>
        <coordinates>
        -83.5663520414335,34.1338897320207,0</coordinates>
      </Point>
    </Placemark>
    <Placemark>
      <name>COUNTY_JASPER_GA</name>
      <description></description>
      <styleUrl>#style1</styleUrl>
      <Point>
        <coordinates>
        -83.688093561472,33.3164396059945,0</coordinates>
      </Point>
    </Placemark>
    <Placemark>
      <name>COUNTY_JASPER_SC</name>
      <description>Jasper Co Primary Air-to-Ground
      Favorite Zone/Ch: B01/012
      Zone: B20
      Ch #: 004
      SC AIR-3</description>
      <styleUrl>#style1</styleUrl>
      <Point>
        <coordinates>
        -81.0318084497529,32.4373813530938,0</coordinates>
      </Point>
    </Placemark>
    <Placemark>
      <name>COUNTY_JEFF_DAVIS</name>
      <description></description>
      <styleUrl>#style1</styleUrl>
      <Point>
        <coordinates>
        -82.6369448915259,31.805601775071,0</coordinates>
      </Point>
    </Placemark>
    <Placemark>
      <name>COUNTY_JEFFERSON</name>
      <description>Jefferson Co Primary Air-to-Ground
      Favorite Zone/Ch: A01/001
      Zone: A10
      Ch #: 001
      GA/SC HEAR</description>
      <styleUrl>#style1</styleUrl>
      <Point>
        <coordinates>
        -82.41815544941529,33.0548501678006,0</coordinates>
      </Point>
    </Placemark>
    <Placemark>
      <name>COUNTY_JENKINS</name>
      <description></description>
      <styleUrl>#style1</styleUrl>
      <Point>
        <coordinates>
        -81.9635352970398,32.7924771184004,0</coordinates>
      </Point>
    </Placemark>
    <Placemark>
      <name>COUNTY_JOHNSON</name>
      <description></description>
      <styleUrl>#style1</styleUrl>
      <Point>
        <coordinates>
        -82.66008508088331,32.7014710346541,0</coordinates>
      </Point>
    </Placemark>
    <Placemark>
      <name>COUNTY_JONES</name>
      <description></description>
      <styleUrl>#style1</styleUrl>
      <Point>
        <coordinates>
        -83.5605281481659,33.0251391621878,0</coordinates>
      </Point>
    </Placemark>
    <Placemark>
      <name>COUNTY_KERSHAW</name>
      <description></description>
      <styleUrl>#style1</styleUrl>
      <Point>
        <coordinates>
        -80.5902999799824,34.3389306822883,0</coordinates>
      </Point>
    </Placemark>
    <Placemark>
      <name>COUNTY_LAMAR</name>
      <description></description>
      <styleUrl>#style1</styleUrl>
      <Point>
        <coordinates>
        -84.1394667059031,33.076541746453,0</coordinates>
      </Point>
    </Placemark>
    <Placemark>
      <name>COUNTY_LANCASTER</name>
      <description></description>
      <styleUrl>#style1</styleUrl>
      <Point>
        <coordinates>
        -80.7054475096202,34.6869652643223,0</coordinates>
      </Point>
    </Placemark>
    <Placemark>
      <name>COUNTY_LANIER</name>
      <description></description>
      <styleUrl>#style1</styleUrl>
      <Point>
        <coordinates>
        -83.0626576514057,31.0378997969589,0</coordinates>
      </Point>
    </Placemark>
    <Placemark>
      <name>COUNTY_LAURENS_GA</name>
      <description></description>
      <styleUrl>#style1</styleUrl>
      <Point>
        <coordinates>
        -82.92224238135989,32.4636626002761,0</coordinates>
      </Point>
    </Placemark>
    <Placemark>
      <name>COUNTY_LAURENS_SC</name>
      <description>Laurens Co Primary Air-to-Ground
      Zone: A20
      Ch #: 032
      LAURNS FIRE

Laurens Co Secondary Air-to-Ground
      Favorite Zone/Ch: B01/011
      Zone: B20
      Ch #: 002
      SC AIR-1</description>
      <styleUrl>#style1</styleUrl>
      <Point>
        <coordinates>
        -82.0059665678736,34.4836211403667,0</coordinates>
      </Point>
    </Placemark>
    <Placemark>
      <name>COUNTY_LEE_GA</name>
      <description></description>
      <styleUrl>#style1</styleUrl>
      <Point>
        <coordinates>
        -84.1409868559972,31.7796137467809,0</coordinates>
      </Point>
    </Placemark>
    <Placemark>
      <name>COUNTY_LEE_SC</name>
      <description></description>
      <styleUrl>#style1</styleUrl>
      <Point>
        <coordinates>
        -80.2544935264964,34.16326992244,0</coordinates>
      </Point>
    </Placemark>
    <Placemark>
      <name>COUNTY_LEXINGTON</name>
      <description>Lexington Co Primary Air-to-Ground
      Favorite Zone/Ch: B01/011
      Zone: B20
      Ch #: 002
      SC AIR-1

Lexington Co Secondary Air-to-Ground
      Favorite Zone/Ch: B01/013
      Zone: B20
      Ch #: 005
      SC AIR2GND</description>
      <styleUrl>#style1</styleUrl>
      <Point>
        <coordinates>
        -81.2725339496818,33.9021569276668,0</coordinates>
      </Point>
    </Placemark>
    <Placemark>
      <name>COUNTY_LIBERTY</name>
      <description></description>
      <styleUrl>#style1</styleUrl>
      <Point>
        <coordinates>
        -81.4562586229672,31.8072348883764,0</coordinates>
      </Point>
    </Placemark>
    <Placemark>
      <name>COUNTY_LINCOLN</name>
      <description>Lincoln Co Primary Air-to-Ground
      Favorite Zone/Ch: A01/001
      Zone: A10
      Ch #: 001
      GA/SC HEAR</description>
      <styleUrl>#style1</styleUrl>
      <Point>
        <coordinates>
        -82.4512164256173,33.793666032485,0</coordinates>
      </Point>
    </Placemark>
    <Placemark>
      <name>COUNTY_LONG</name>
      <description></description>
      <styleUrl>#style1</styleUrl>
      <Point>
        <coordinates>
        -81.745770194147,31.7525906555259,0</coordinates>
      </Point>
    </Placemark>
    <Placemark>
      <name>COUNTY_LOWNDES</name>
      <description></description>
      <styleUrl>#style1</styleUrl>
      <Point>
        <coordinates>
        -83.26771162238209,30.8338627369506,0</coordinates>
      </Point>
    </Placemark>
    <Placemark>
      <name>COUNTY_LUMPKIN</name>
      <description></description>
      <styleUrl>#style1</styleUrl>
      <Point>
        <coordinates>
        -84.0026542112453,34.5721929026301,0</coordinates>
      </Point>
    </Placemark>
    <Placemark>
      <name>COUNTY_MACON</name>
      <description></description>
      <styleUrl>#style1</styleUrl>
      <Point>
        <coordinates>
        -84.0425460108919,32.3576829959303,0</coordinates>
      </Point>
    </Placemark>
    <Placemark>
      <name>COUNTY_MADISON</name>
      <description></description>
      <styleUrl>#style1</styleUrl>
      <Point>
        <coordinates>
        -83.2090413171767,34.1277907262618,0</coordinates>
      </Point>
    </Placemark>
    <Placemark>
      <name>COUNTY_MARION_GA</name>
      <description></description>
      <styleUrl>#style1</styleUrl>
      <Point>
        <coordinates>
        -84.52464187459439,32.353384180867,0</coordinates>
      </Point>
    </Placemark>
    <Placemark>
      <name>COUNTY_MARION_SC</name>
      <description></description>
      <styleUrl>#style1</styleUrl>
      <Point>
        <coordinates>
        -79.362518453655,34.0800884315937,0</coordinates>
      </Point>
    </Placemark>
    <Placemark>
      <name>COUNTY_MARLBORO</name>
      <description></description>
      <styleUrl>#style1</styleUrl>
      <Point>
        <coordinates>
        -79.67854509926811,34.6019190419817,0</coordinates>
      </Point>
    </Placemark>
    <Placemark>
      <name>COUNTY_MCCORMICK</name>
      <description>McCormick Co Primary Air-to-Ground
      Favorite Zone/Ch: A01/001
      Zone: A20
      Ch #: 001
      GA/SC HEAR

McCormick Co Central Secondary Air-to-Ground
      Favorite Zone/Ch: A01/016
      Zone: A20
      Ch #: 033
      MCCRMK CENT
     
McCormick Co Backup Air-to-Ground
      Zone: A21
      Ch #: 010
      SC UTAC-2</description>
      <styleUrl>#style1</styleUrl>
      <Point>
        <coordinates>
        -82.31005639277311,33.8996127218739,0</coordinates>
      </Point>
    </Placemark>
    <Placemark>
      <name>COUNTY_MCDUFFIE</name>
      <description>McDuffie Co Primary Air-to-Ground
      Favorite Zone/Ch: A01/001
      Zone: A10
      Ch #: 001
      GA/SC HEAR</description>
      <styleUrl>#style1</styleUrl>
      <Point>
        <coordinates>
        -82.48137159124011,33.4828583801308,0</coordinates>
      </Point>
    </Placemark>
    <Placemark>
      <name>COUNTY_MCINTOSH</name>
      <description></description>
      <styleUrl>#style1</styleUrl>
      <Point>
        <coordinates>
        -81.3755693746344,31.483812207167,0</coordinates>
      </Point>
    </Placemark>
    <Placemark>
      <name>COUNTY_MERIWETHER</name>
      <description></description>
      <styleUrl>#style1</styleUrl>
      <Point>
        <coordinates>
        -84.6883156251194,33.0406619680445,0</coordinates>
      </Point>
    </Placemark>
    <Placemark>
      <name>COUNTY_MILLER</name>
      <description></description>
      <styleUrl>#style1</styleUrl>
      <Point>
        <coordinates>
        -84.730726134195,31.1639981903056,0</coordinates>
      </Point>
    </Placemark>
    <Placemark>
      <name>COUNTY_MITCHELL</name>
      <description></description>
      <styleUrl>#style1</styleUrl>
      <Point>
        <coordinates>
        -84.1943125262583,31.2253268497626,0</coordinates>
      </Point>
    </Placemark>
    <Placemark>
      <name>COUNTY_MONROE</name>
      <description></description>
      <styleUrl>#style1</styleUrl>
      <Point>
        <coordinates>
        -83.91872493114469,33.0140865939319,0</coordinates>
      </Point>
    </Placemark>
    <Placemark>
      <name>COUNTY_MONTGOMERY</name>
      <description></description>
      <styleUrl>#style1</styleUrl>
      <Point>
        <coordinates>
        -82.5348215102814,32.1733695426614,0</coordinates>
      </Point>
    </Placemark>
    <Placemark>
      <name>COUNTY_MORGAN</name>
      <description></description>
      <styleUrl>#style1</styleUrl>
      <Point>
        <coordinates>
        -83.4923862856716,33.5908309574759,0</coordinates>
      </Point>
    </Placemark>
    <Placemark>
      <name>COUNTY_MURRAY</name>
      <description></description>
      <styleUrl>#style1</styleUrl>
      <Point>
        <coordinates>
        -84.7480975960077,34.7884542906519,0</coordinates>
      </Point>
    </Placemark>
    <Placemark>
      <name>COUNTY_MUSCOGEE</name>
      <description></description>
      <styleUrl>#style1</styleUrl>
      <Point>
        <coordinates>
        -84.87704506397471,32.5099674956092,0</coordinates>
      </Point>
    </Placemark>
    <Placemark>
      <name>COUNTY_NEWBERRY</name>
      <description>Newberry Co Primary Air-to-Ground
      Favorite Zone/Ch: B01/011
      Zone: B20
      Ch #: 002
      SC AIR-1</description>
      <styleUrl>#style1</styleUrl>
      <Point>
        <coordinates>
        -81.6000790034123,34.2897831973566,0</coordinates>
      </Point>
    </Placemark>
    <Placemark>
      <name>COUNTY_NEWTON</name>
      <description></description>
      <styleUrl>#style1</styleUrl>
      <Point>
        <coordinates>
        -83.85019054917881,33.5550549568585,0</coordinates>
      </Point>
    </Placemark>
    <Placemark>
      <name>COUNTY_OCONEE_GA</name>
      <description></description>
      <styleUrl>#style1</styleUrl>
      <Point>
        <coordinates>
        -83.43705810277049,33.8349455111852,0</coordinates>
      </Point>
    </Placemark>
    <Placemark>
      <name>COUNTY_OCONEE_SC</name>
      <description>Oconee Co EMS Primary Air-to-Ground
      Zone: A20
      Ch #: 034
      OCONEE RESC</description>
      <styleUrl>#style1</styleUrl>
      <Point>
        <coordinates>
        -83.065836262876,34.753374230687,0</coordinates>
      </Point>
    </Placemark>
    <Placemark>
      <name>COUNTY_OGLETHORPE</name>
      <description></description>
      <styleUrl>#style1</styleUrl>
      <Point>
        <coordinates>
        -83.0807073601798,33.8806545300757,0</coordinates>
      </Point>
    </Placemark>
    <Placemark>
      <name>COUNTY_ORANGEBURG</name>
      <description>Orangeburg Co Primary Air-to-Ground
      Favorite Zone/Ch: B01/012
      Zone: B20
      Ch #: 004
      SC AIR-3</description>
      <styleUrl>#style1</styleUrl>
      <Point>
        <coordinates>
        -80.8001528225913,33.4388853120533,0</coordinates>
      </Point>
    </Placemark>
    <Placemark>
      <name>COUNTY_PAULDING</name>
      <description></description>
      <styleUrl>#style1</styleUrl>
      <Point>
        <coordinates>
        -84.8672924753738,33.9205515580616,0</coordinates>
      </Point>
    </Placemark>
    <Placemark>
      <name>COUNTY_PEACH</name>
      <description></description>
      <styleUrl>#style1</styleUrl>
      <Point>
        <coordinates>
        -83.8268822002387,32.5687841355439,0</coordinates>
      </Point>
    </Placemark>
    <Placemark>
      <name>COUNTY_PICKENS_GA</name>
      <description></description>
      <styleUrl>#style1</styleUrl>
      <Point>
        <coordinates>
        -84.46564316662869,34.4643267248737,0</coordinates>
      </Point>
    </Placemark>
    <Placemark>
      <name>COUNTY_PICKENS_SC</name>
      <description></description>
      <styleUrl>#style1</styleUrl>
      <Point>
        <coordinates>
        -82.72522301011669,34.8876664674815,0</coordinates>
      </Point>
    </Placemark>
    <Placemark>
      <name>COUNTY_PIERCE</name>
      <description></description>
      <styleUrl>#style1</styleUrl>
      <Point>
        <coordinates>
        -82.21274606468999,31.3587635983858,0</coordinates>
      </Point>
    </Placemark>
    <Placemark>
      <name>COUNTY_PIKE</name>
      <description></description>
      <styleUrl>#style1</styleUrl>
      <Point>
        <coordinates>
        -84.3892386461329,33.0922712665371,0</coordinates>
      </Point>
    </Placemark>
    <Placemark>
      <name>COUNTY_POLK</name>
      <description></description>
      <styleUrl>#style1</styleUrl>
      <Point>
        <coordinates>
        -85.1881578503141,34.0017904175552,0</coordinates>
      </Point>
    </Placemark>
    <Placemark>
      <name>COUNTY_PULASKI</name>
      <description></description>
      <styleUrl>#style1</styleUrl>
      <Point>
        <coordinates>
        -83.47596827460509,32.2323071767096,0</coordinates>
      </Point>
    </Placemark>
    <Placemark>
      <name>COUNTY_PUTNAM</name>
      <description></description>
      <styleUrl>#style1</styleUrl>
      <Point>
        <coordinates>
        -83.37284535838791,33.3217733630371,0</coordinates>
      </Point>
    </Placemark>
    <Placemark>
      <name>COUNTY_QUITMAN</name>
      <description></description>
      <styleUrl>#style1</styleUrl>
      <Point>
        <coordinates>
        -85.0187881575376,31.8673365599782,0</coordinates>
      </Point>
    </Placemark>
    <Placemark>
      <name>COUNTY_RABUN</name>
      <description></description>
      <styleUrl>#style1</styleUrl>
      <Point>
        <coordinates>
        -83.4021406392453,34.8816892476635,0</coordinates>
      </Point>
    </Placemark>
    <Placemark>
      <name>COUNTY_RANDOLPH</name>
      <description></description>
      <styleUrl>#style1</styleUrl>
      <Point>
        <coordinates>
        -84.7541962222427,31.7626287986764,0</coordinates>
      </Point>
    </Placemark>
    <Placemark>
      <name>COUNTY_RICHLAND</name>
      <description>Richland Co Primary Air-to-Ground
      Favorite Zone/Ch: B01/011
      Zone: B20
      Ch #: 002
      SC AIR-1

Richland Co Secondary Air-to-Ground
      Zone: B20
      Ch #: 003
      SC AIR-2</description>
      <styleUrl>#style1</styleUrl>
      <Point>
        <coordinates>
        -80.90323827369011,34.021911446789,0</coordinates>
      </Point>
    </Placemark>
    <Placemark>
      <name>COUNTY_RICHMOND</name>
      <description>Richmond Co Primary Air-to-Ground
      Favorite Zone/Ch: A01/001
      Zone: A10
      Ch #: 001
      GA/SC HEAR
      
Richmond Co EMS-1 (Gold Cross EMS)
      Favorite Zone/Ch: B01/004
      Zone: B10
      Ch #: 003
      RICH EMS-1</description>
      <styleUrl>#style1</styleUrl>
      <Point>
        <coordinates>
        -82.07355233169871,33.359640499854,0</coordinates>
      </Point>
    </Placemark>
    <Placemark>
      <name>COUNTY_ROCKDALE</name>
      <description></description>
      <styleUrl>#style1</styleUrl>
      <Point>
        <coordinates>
        -84.026612445609,33.6542412846531,0</coordinates>
      </Point>
    </Placemark>
    <Placemark>
      <name>COUNTY_SALUDA</name>
      <description>Saluda Co Primary Air-to-Ground
      Favorite Zone/Ch: A01/017
      Zone: A20
      Ch #: 035
      ALDA FIRE1

Saluda Co Secondary Air-to-Ground
      Zone: A20
      Ch #: 036
      ALDA FIRE2
      
Saluda Co Backup Air-to-Ground
      Zone: A20
      Ch #: 037
      ALDA EMS1 

Saluda Co Backup Air-to-Ground
      Zone: A20
      Ch #: 038
      ALDA EMS2</description>
      <styleUrl>#style1</styleUrl>
      <Point>
        <coordinates>
        -81.72773865752799,34.0067474116584,0</coordinates>
      </Point>
    </Placemark>
    <Placemark>
      <name>COUNTY_SCHLEY</name>
      <description></description>
      <styleUrl>#style1</styleUrl>
      <Point>
        <coordinates>
        -84.3147248097258,32.2616916788679,0</coordinates>
      </Point>
    </Placemark>
    <Placemark>
      <name>COUNTY_SCREVEN</name>
      <description>Screven Co Primary Air-to-Ground
      Favorite Zone/Ch: A01/001
      Zone: A10
      Ch #: 001
      GA/SC HEAR</description>
      <styleUrl>#style1</styleUrl>
      <Point>
        <coordinates>
        -81.6119375781752,32.750592627432,0</coordinates>
      </Point>
    </Placemark>
    <Placemark>
      <name>COUNTY_SEMINOLE</name>
      <description></description>
      <styleUrl>#style1</styleUrl>
      <Point>
        <coordinates>
        -84.86887446025079,30.9387840309243,0</coordinates>
      </Point>
    </Placemark>
    <Placemark>
      <name>COUNTY_SPALDING</name>
      <description></description>
      <styleUrl>#style1</styleUrl>
      <Point>
        <coordinates>
        -84.2841635648479,33.2608744820226,0</coordinates>
      </Point>
    </Placemark>
    <Placemark>
      <name>COUNTY_SPARTANBURG</name>
      <description></description>
      <styleUrl>#style1</styleUrl>
      <Point>
        <coordinates>
        -81.9906636265555,34.9312075538123,0</coordinates>
      </Point>
    </Placemark>
    <Placemark>
      <name>COUNTY_STEPHENS</name>
      <description>Stephens Co Primary Air-to-Ground
      Zone: A10
      Ch #: 012
      STPHN FIRE
      
Stephens Co Secondary Air-to-Ground
      Zone: A10
      Ch #: 013
      STPHN EMS</description>
      <styleUrl>#style1</styleUrl>
      <styleUrl>#style1</styleUrl>
      <Point>
        <coordinates>
        -83.29343713724229,34.5539508555282,0</coordinates>
      </Point>
    </Placemark>
    <Placemark>
      <name>COUNTY_STEWART</name>
      <description></description>
      <styleUrl>#style1</styleUrl>
      <Point>
        <coordinates>
        -84.8352065023936,32.0784682896445,0</coordinates>
      </Point>
    </Placemark>
    <Placemark>
      <name>COUNTY_SUMTER_GA</name>
      <description></description>
      <styleUrl>#style1</styleUrl>
      <Point>
        <coordinates>
        -84.1970453900208,32.0399752365391,0</coordinates>
      </Point>
    </Placemark>
    <Placemark>
      <name>COUNTY_SUMTER_SC</name>
      <description></description>
      <styleUrl>#style1</styleUrl>
      <Point>
        <coordinates>
        -80.382190524075,33.9160701649283,0</coordinates>
      </Point>
    </Placemark>
    <Placemark>
      <name>COUNTY_TALBOT</name>
      <description></description>
      <styleUrl>#style1</styleUrl>
      <Point>
        <coordinates>
        -84.53301434797631,32.6994922865455,0</coordinates>
      </Point>
    </Placemark>
    <Placemark>
      <name>COUNTY_TALIAFERRO</name>
      <description></description>
      <styleUrl>#style1</styleUrl>
      <Point>
        <coordinates>
        -82.8787685293281,33.5660967195177,0</coordinates>
      </Point>
    </Placemark>
    <Placemark>
      <name>COUNTY_TATTNALL</name>
      <description></description>
      <styleUrl>#style1</styleUrl>
      <Point>
        <coordinates>
        -82.0581790098952,32.0457545426149,0</coordinates>
      </Point>
    </Placemark>
    <Placemark>
      <name>COUNTY_TAYLOR</name>
      <description></description>
      <styleUrl>#style1</styleUrl>
      <Point>
        <coordinates>
        -84.2518621855999,32.5558917704615,0</coordinates>
      </Point>
    </Placemark>
    <Placemark>
      <name>COUNTY_TELFAIR</name>
      <description></description>
      <styleUrl>#style1</styleUrl>
      <Point>
        <coordinates>
        -82.938991524046,31.9298069741884,0</coordinates>
      </Point>
    </Placemark>
    <Placemark>
      <name>COUNTY_TERRELL</name>
      <description></description>
      <styleUrl>#style1</styleUrl>
      <Point>
        <coordinates>
        -84.4369262180749,31.7768869333769,0</coordinates>
      </Point>
    </Placemark>
    <Placemark>
      <name>COUNTY_THOMAS</name>
      <description></description>
      <styleUrl>#style1</styleUrl>
      <Point>
        <coordinates>
        -83.91931757593581,30.863688009807,0</coordinates>
      </Point>
    </Placemark>
    <Placemark>
      <name>COUNTY_TIFT</name>
      <description></description>
      <styleUrl>#style1</styleUrl>
      <Point>
        <coordinates>
        -83.52659830218219,31.4574438515917,0</coordinates>
      </Point>
    </Placemark>
    <Placemark>
      <name>COUNTY_TOOMBS</name>
      <description></description>
      <styleUrl>#style1</styleUrl>
      <Point>
        <coordinates>
        -82.3312967626028,32.1217266468237,0</coordinates>
      </Point>
    </Placemark>
    <Placemark>
      <name>COUNTY_TOWNS</name>
      <description></description>
      <styleUrl>#style1</styleUrl>
      <Point>
        <coordinates>
        -83.7372833070811,34.9166588452229,0</coordinates>
      </Point>
    </Placemark>
    <Placemark>
      <name>COUNTY_TREUTLEN</name>
      <description></description>
      <styleUrl>#style1</styleUrl>
      <Point>
        <coordinates>
        -82.567284771391,32.4038874678852,0</coordinates>
      </Point>
    </Placemark>
    <Placemark>
      <name>COUNTY_TROUP</name>
      <description></description>
      <styleUrl>#style1</styleUrl>
      <Point>
        <coordinates>
        -85.0283408487461,33.0335163764445,0</coordinates>
      </Point>
    </Placemark>
    <Placemark>
      <name>COUNTY_TURNER</name>
      <description></description>
      <styleUrl>#style1</styleUrl>
      <Point>
        <coordinates>
        -83.6240969704115,31.7163907457785,0</coordinates>
      </Point>
    </Placemark>
    <Placemark>
      <name>COUNTY_TWIGGS</name>
      <description></description>
      <styleUrl>#style1</styleUrl>
      <Point>
        <coordinates>
        -83.42708753714039,32.6672074454541,0</coordinates>
      </Point>
    </Placemark>
    <Placemark>
      <name>COUNTY_UNION_GA</name>
      <description></description>
      <styleUrl>#style1</styleUrl>
      <Point>
        <coordinates>
        -83.9907598223985,34.8340170145382,0</coordinates>
      </Point>
    </Placemark>
    <Placemark>
      <name>COUNTY_UNION_SC</name>
      <description></description>
      <styleUrl>#style1</styleUrl>
      <Point>
        <coordinates>
        -81.6193358804091,34.6892875994398,0</coordinates>
      </Point>
    </Placemark>
    <Placemark>
      <name>COUNTY_UPSON</name>
      <description></description>
      <styleUrl>#style1</styleUrl>
      <Point>
        <coordinates>
        -84.2993472299475,32.8812492228742,0</coordinates>
      </Point>
    </Placemark>
    <Placemark>
      <name>COUNTY_WALKER</name>
      <description></description>
      <styleUrl>#style1</styleUrl>
      <Point>
        <coordinates>
        -85.30098752814629,34.7356696485181,0</coordinates>
      </Point>
    </Placemark>
    <Placemark>
      <name>COUNTY_WALTON</name>
      <description></description>
      <styleUrl>#style1</styleUrl>
      <Point>
        <coordinates>
        -83.7338506277311,33.7815631336898,0</coordinates>
      </Point>
    </Placemark>
    <Placemark>
      <name>COUNTY_WARE</name>
      <description></description>
      <styleUrl>#style1</styleUrl>
      <Point>
        <coordinates>
        -82.4236791946533,31.0536374010992,0</coordinates>
      </Point>
    </Placemark>
    <Placemark>
      <name>COUNTY_WARREN</name>
      <description>Warren Co Primary Air-to-Ground
      Favorite Zone/Ch: A01/001
      Zone: A10
      Ch #: 001
      GA/SC HEAR</description>
      <styleUrl>#style1</styleUrl>
      <Point>
        <coordinates>
        -82.67676571903721,33.4089693698295,0</coordinates>
      </Point>
    </Placemark>
    <Placemark>
      <name>COUNTY_WASHINGTON</name>
      <description>Washington Co Primary Air-to-Ground
      Favorite Zone/Ch: A01/001
      Zone: A10
      Ch #: 001
      GA/SC HEAR</description>
      <styleUrl>#style1</styleUrl>
      <Point>
        <coordinates>
        -82.7959031713865,32.9695417347381,0</coordinates>
      </Point>
    </Placemark>
    <Placemark>
      <name>COUNTY_WAYNE</name>
      <description></description>
      <styleUrl>#style1</styleUrl>
      <Point>
        <coordinates>
        -81.9167618558657,31.5514394813239,0</coordinates>
      </Point>
    </Placemark>
    <Placemark>
      <name>COUNTY_WEBSTER</name>
      <description></description>
      <styleUrl>#style1</styleUrl>
      <Point>
        <coordinates>
        -84.55105663777699,32.0466547773408,0</coordinates>
      </Point>
    </Placemark>
    <Placemark>
      <name>COUNTY_WHEELER</name>
      <description></description>
      <styleUrl>#style1</styleUrl>
      <Point>
        <coordinates>
        -82.7245972773817,32.1170712540042,0</coordinates>
      </Point>
    </Placemark>
    <Placemark>
      <name>COUNTY_WHITE</name>
      <description></description>
      <styleUrl>#style1</styleUrl>
      <Point>
        <coordinates>
        -83.7471190270695,34.6463671389377,0</coordinates>
      </Point>
    </Placemark>
    <Placemark>
      <name>COUNTY_WHITFIELD</name>
      <description></description>
      <styleUrl>#style1</styleUrl>
      <Point>
        <coordinates>
        -84.9672246266605,34.8056185546302,0</coordinates>
      </Point>
    </Placemark>
    <Placemark>
      <name>COUNTY_WILCOX</name>
      <description></description>
      <styleUrl>#style1</styleUrl>
      <Point>
        <coordinates>
        -83.4323658365185,31.9729020475587,0</coordinates>
      </Point>
    </Placemark>
    <Placemark>
      <name>COUNTY_WILKES</name>
      <description>Wilkes Co Primary Air-to-Ground
      Favorite Zone/Ch: A01/001
      Zone: A10
      Ch #: 001
      GA/SC HEAR</description>
      <styleUrl>#style1</styleUrl>
      <Point>
        <coordinates>
        -82.7432307513573,33.7819516804803,0</coordinates>
      </Point>
    </Placemark>
    <Placemark>
      <name>COUNTY_WILKINSON</name>
      <description>Wilkinson Co Primary Air-to-Ground
      Favorite Zone/Ch: A01/001
      Zone: A10
      Ch #: 001
      GA/SC HEAR</description>
      <styleUrl>#style1</styleUrl>
      <Point>
        <coordinates>
        -83.17125305406471,32.8024115153351,0</coordinates>
      </Point>
    </Placemark>
    <Placemark>
      <name>COUNTY_WILLIAMSBURG</name>
      <description></description>
      <styleUrl>#style1</styleUrl>
      <Point>
        <coordinates>
        -79.7277877569563,33.6197869565186,0</coordinates>
      </Point>
    </Placemark>
    <Placemark>
      <name>COUNTY_WORTH</name>
      <description></description>
      <styleUrl>#style1</styleUrl>
      <Point>
        <coordinates>
        -83.850879680652,31.5515176797015,0</coordinates>
      </Point>
    </Placemark>
    <Placemark>
      <name>COUNTY_YORK</name>
      <description></description>
      <styleUrl>#style1</styleUrl>
      <Point>
        <coordinates>
        -81.18440970075051,34.974772612825,0</coordinates>
      </Point>
    </Placemark>
  </Document>
</kml>
